{
	"type": "FeatureCollection",
	"features": [
		{
			"type": "Feature", "geometry": {"type": "Point", "coordinates": [98.338088, 7.951933]},
			"properties": {"mass": "3222","name": "Phuket","year": "2015"
			}
		},
		{
			"type": "Feature", "geometry": {"type": "Point", "coordinates": [100.501765, 13.756331]},
			"properties": {"mass": "555","name": "Bangkok","year": "1990"
			}
		},
		{
			"type": "Feature", "geometry": {"type": "Point", "coordinates": [139.691706, 35.689487]},
			"properties": {"mass": "555","name": "Tokyo","year": "2016"
			}
		},
		{
			"type": "Feature", "geometry": {"type": "Point", "coordinates": [126.977969, 37.566535]},
			"properties": {"mass": "555","name": "Seoul","year": "2016"
			}
		},
		{
			"type": "Feature", "geometry": {"type": "Point", "coordinates": [-123.029022, 49.272677]},
			"properties": {"mass": "99","name": "Vancouver","year": "1987"
			}
		}
	],
	"crs": {
		"type": "name",
		"properties": {
			"name": "urn:ogc:def:crs:OGC:1.3:CRS84"
		}
	}
}
