{
	"type": "FeatureCollection",
	"features": [
		{
			"type": "Feature", "geometry": {"type": "Point", "coordinates": [-0.127758, 51.507351]},
			"properties": {"mass": "555","name": "London","year": "2013","recclass": "2013"
			}
		},
		{
			"type": "Feature", "geometry": {"type": "Point", "coordinates": [103.819836, 1.352083]},
			"properties": {"mass": "555","name": "Singapore","year": "2014","recclass": "2014, 2015"
			}
		},
		{
			"type": "Feature", "geometry": {"type": "Point", "coordinates": [102.633104, 17.975706]},
			"properties": {"mass": "555","name": "Vientiane","year": "2012","recclass": "2012, 2014"
			}
		},
		{
			"type": "Feature", "geometry": {"type": "Point", "coordinates": [105.834160, 21.027764]},
			"properties": {"mass": "555","name": "Hanoi","year": "2012","recclass": "2012"
			}
		},
		{
			"type": "Feature", "geometry": {"type": "Point", "coordinates": [135.805000, 34.685087]},
			"properties": {"mass": "111","name": "Nara","year": "2012","recclass": "2012"
			}
		},
		{
			"type": "Feature", "geometry": {"type": "Point", "coordinates": [135.768029, 35.011636]},
			"properties": {"mass": "111","name": "Kyoto","year": "2012","recclass": "2012"
			}
		},
		{
			"type": "Feature", "geometry": {"type": "Point", "coordinates": [121.565418, 25.032969]},
			"properties": {"mass": "222","name": "Taipei","year": "2012","recclass": "2014, 2017"
			}
		},
		{
			"type": "Feature", "geometry": {"type": "Point", "coordinates": [135.502165, 34.693738]},
			"properties": {"mass": "111","name": "Osaka","year": "2012","recclass": "2012"
			}
		},
		{
			"type": "Feature", "geometry": {"type": "Point", "coordinates": [106.629664, 10.823099]},
			"properties": {"mass": "255","name": "Ho Chi Minh City","year": "2012","recclass": "2012"
			}
		},
		{
			"type": "Feature", "geometry": {"type": "Point", "coordinates": [100.877081, 12.927608]},
			"properties": {"mass": "555","name": "Pattaya","year": "2015","recclass": "1990, 1994, 1995, 1996, 1998, 2004, 2013, 2015, 2016"
			}
		},
		{
			"type": "Feature", "geometry": {"type": "Point", "coordinates": [99.852194, 19.906415]},
			"properties": {"mass": "555","name": "Chiang Rai","year": "1999","recclass": "1999, 2007"
			}
		},
		{
			"type": "Feature", "geometry": {"type": "Point", "coordinates": [98.981716, 18.706064]},
			"properties": {"mass": "555","name": "Chiang Mai","year": "2015","recclass": "2001, 2007, 2015, 2016"
			}
		},
		{
			"type": "Feature", "geometry": {"type": "Point", "coordinates": [-118.243685, 34.052234]},
			"properties": {"mass": "555","name": "Los Angeles","year": "2015","recclass": "2012, 2013, 2015"
			}
		},
		{
			"type": "Feature", "geometry": {"type": "Point", "coordinates": [98.338088, 7.951933]},
			"properties": {"mass": "3222","name": "Phuket","year": "2015","recclass": "1992, 1998, 2004, 2011, 2015"
			}
		},
		{
			"type": "Feature", "geometry": {"type": "Point", "coordinates": [100.501765, 13.756331]},
			"properties": {"mass": "555","name": "Bangkok","year": "1990","recclass": "1990"
			}
		},
		{
			"type": "Feature", "geometry": {"type": "Point", "coordinates": [114.109497, 22.396428]},
			"properties": {"mass": "555","name": "Hong Kong","year": "2011","recclass": "2011"
			}
		},
		{
			"type": "Feature", "geometry": {"type": "Point", "coordinates": [2.352222, 48.856614]},
			"properties": {"mass": "555","name": "Paris","year": "1990","recclass": "1990"
			}
		},
		{
			"type": "Feature", "geometry": {"type": "Point", "coordinates": [-1.087298, 53.959965]},
			"properties": {"mass": "555","name": "York","year": "2013","recclass": "2013"
			}
		},
		{
			"type": "Feature", "geometry": {"type": "Point", "coordinates": [-74.005941, 40.712784]},
			"properties": {"mass": "555","name": "New York","year": "2012","recclass": "2012, 2015"
			}
		},
		{
			"type": "Feature", "geometry": {"type": "Point", "coordinates": [-115.139830, 36.169941]},
			"properties": {"mass": "555","name": "Las Vegas","year": "2012","recclass": "2012, 2014"
			}
		},
		{
			"type": "Feature", "geometry": {"type": "Point", "coordinates": [139.691706, 35.689487]},
			"properties": {"mass": "555","name": "Tokyo","year": "2014","recclass": "2014, 2016"
			}
		},
		{
			"type": "Feature", "geometry": {"type": "Point", "coordinates": [126.977969, 37.566535]},
			"properties": {"mass": "555","name": "Seoul","year": "2016","recclass": "2016"
			}
		},
		{
			"type": "Feature", "geometry": {"type": "Point", "coordinates": [-123.029022, 49.272677]},
			"properties": {"mass": "99","name": "Vancouver","year": "1989","recclass": "1989"
			}
		}
	],
	"crs": {
		"type": "name",
		"properties": {
			"name": "urn:ogc:def:crs:OGC:1.3:CRS84"
		}
	}
}
