{
	"type": "FeatureCollection",
	"features": [
		{
			"type": "Feature", "geometry": {"type": "Point", "coordinates": [-0.127758, 51.507351]},
			"properties": {"mass": "555","name": "London","year": "2013"
			}
		},
		{
			"type": "Feature", "geometry": {"type": "Point", "coordinates": [103.819836, 1.352083]},
			"properties": {"mass": "555","name": "Singapore","year": "2014"
			}
		},
		{
			"type": "Feature", "geometry": {"type": "Point", "coordinates": [102.633104, 17.975706]},
			"properties": {"mass": "555","name": "Vientiane","year": "2012"
			}
		},
		{
			"type": "Feature", "geometry": {"type": "Point", "coordinates": [100.877081, 12.927608]},
			"properties": {"mass": "555","name": "Pattaya","year": "2015"
			}
		},
		{
			"type": "Feature", "geometry": {"type": "Point", "coordinates": [99.852194, 19.906415]},
			"properties": {"mass": "555","name": "Chiang Rai","year": "1999"
			}
		},
		{
			"type": "Feature", "geometry": {"type": "Point", "coordinates": [98.981716, 18.706064]},
			"properties": {"mass": "555","name": "Chiang Mai","year": "2015"
			}
		},
		{
			"type": "Feature", "geometry": {"type": "Point", "coordinates": [-118.243685, 34.052234]},
			"properties": {"mass": "555","name": "Los Angeles","year": "2015"
			}
		},
		{
			"type": "Feature", "geometry": {"type": "Point", "coordinates": [98.338088, 7.951933]},
			"properties": {"mass": "3222","name": "Phuket","year": "2015"
			}
		},
		{
			"type": "Feature", "geometry": {"type": "Point", "coordinates": [100.501765, 13.756331]},
			"properties": {"mass": "555","name": "Bangkok","year": "1990"
			}
		},
		{
			"type": "Feature", "geometry": {"type": "Point", "coordinates": [114.109497, 22.396428]},
			"properties": {"mass": "555","name": "Hong Kong","year": "2011"
			}
		},
		{
			"type": "Feature", "geometry": {"type": "Point", "coordinates": [2.352222, 48.856614]},
			"properties": {"mass": "555","name": "Paris","year": "1990"
			}
		},
		{
			"type": "Feature", "geometry": {"type": "Point", "coordinates": [-1.087298, 53.959965]},
			"properties": {"mass": "555","name": "York","year": "2013"
			}
		},
		{
			"type": "Feature", "geometry": {"type": "Point", "coordinates": [-74.005941, 40.712784]},
			"properties": {"mass": "555","name": "New York","year": "2015"
			}
		},
		{
			"type": "Feature", "geometry": {"type": "Point", "coordinates": [-115.139830, 36.169941]},
			"properties": {"mass": "555","name": "Las Vegas","year": "2015"
			}
		},
		{
			"type": "Feature", "geometry": {"type": "Point", "coordinates": [139.691706, 35.689487]},
			"properties": {"mass": "555","name": "Tokyo","year": "2016"
			}
		},
		{
			"type": "Feature", "geometry": {"type": "Point", "coordinates": [126.977969, 37.566535]},
			"properties": {"mass": "555","name": "Seoul","year": "2016"
			}
		},
		{
			"type": "Feature", "geometry": {"type": "Point", "coordinates": [-123.029022, 49.272677]},
			"properties": {"mass": "99","name": "Vancouver","year": "1987"
			}
		}
	],
	"crs": {
		"type": "name",
		"properties": {
			"name": "urn:ogc:def:crs:OGC:1.3:CRS84"
		}
	}
}
